{
"type": "FeatureCollection",
"crs": { "type": "name", "properties": { "name": "urn:ogc:def:crs:OGC:1.3:CRS84" } },
"features": [
{ "type": "Feature", "properties": { "city": "Adilabad", "heat index": 126.7171609251611, "Temperature(°F)": 89.96, "latitude": 19.6625054, "longitude": 78.4953182 }, "geometry": { "type": "Point", "coordinates": [ 78.4953182, 19.6625054 ] } },
{ "type": "Feature", "properties": { "city": "Nizamabad", "heat index": 146.52969256038119, "Temperature(°F)": 94.64, "latitude": 18.6804717, "longitude": 78.0606503 }, "geometry": { "type": "Point", "coordinates": [ 78.0606503, 18.6804717 ] } },
{ "type": "Feature", "properties": { "city": "Karimnagar", "heat index": 140.15093438747513, "Temperature(°F)": 92.66, "latitude": 18.4348833, "longitude": 79.0981286 }, "geometry": { "type": "Point", "coordinates": [ 79.0981286, 18.4348833 ] } },
{ "type": "Feature", "properties": { "city": "Khammam", "heat index": 117.99929687308054, "Temperature(°F)": 88.34, "latitude": 17.2484683, "longitude": 80.006904 }, "geometry": { "type": "Point", "coordinates": [ 80.006904, 17.2484683 ] } },
{ "type": "Feature", "properties": { "city": "Warangal", "heat index": 126.7171609251611, "Temperature(°F)": 89.96, "latitude": 17.9774221, "longitude": 79.52881 }, "geometry": { "type": "Point", "coordinates": [ 79.52881, 17.9774221 ] } }
]
}
