{
"type": "FeatureCollection",
"crs": { "type": "name", "properties": { "name": "urn:ogc:def:crs:OGC:1.3:CRS84" } },
"features": [
{ "type": "Feature", "properties": { "city": "Adilabad", "heat index": 152.02436842971929, "Temperature(°C)": 41.9, "latitude": 19.6625054, "longitude": 78.4953182 }, "geometry": { "type": "Point", "coordinates": [ 78.4953182, 19.6625054 ] } },
{ "type": "Feature", "properties": { "city": "Nizamabad", "heat index": 178.11553793260575, "Temperature(°C)": 42.7, "latitude": 18.6804717, "longitude": 78.0606503 }, "geometry": { "type": "Point", "coordinates": [ 78.0606503, 18.6804717 ] } },
{ "type": "Feature", "properties": { "city": "Karimnagar", "heat index": 167.60883508974331, "Temperature(°C)": 41.8, "latitude": 18.4348833, "longitude": 79.0981286 }, "geometry": { "type": "Point", "coordinates": [ 79.0981286, 18.4348833 ] } },
{ "type": "Feature", "properties": { "city": "Khammam", "heat index": 163.47248006167385, "Temperature(°C)": 40.7, "latitude": 17.2484683, "longitude": 80.006904 }, "geometry": { "type": "Point", "coordinates": [ 80.006904, 17.2484683 ] } },
{ "type": "Feature", "properties": { "city": "Warangal", "heat index": 152.02436842971929, "Temperature(°C)": 41.9, "latitude": 17.9774221, "longitude": 79.52881 }, "geometry": { "type": "Point", "coordinates": [ 79.52881, 17.9774221 ] } }
]
}
